<?xml version="1.0" encoding="UTF-8"?>
<kml xmlns="http://earth.google.com/kml/2.2">
<Document id="NCC_accesspts_CCv2">
  <name>NCC_accesspts_CCv2</name>
  <Snippet></Snippet>
  <Folder id="FeatureLayer0">
    <name>NCC_accesspts_CCv2</name>
  <Snippet></Snippet>
    <Placemark>
      <name>Dillon Beach</name>
      <styleUrl>#IconStyle00</styleUrl>
      <Snippet></Snippet>
      <Point>
        <extrude>0</extrude>
        <altitudeMode>relativeToGround</altitudeMode>
        <coordinates> -122.967061,38.250391,0.000000</coordinates>
      </Point>
    </Placemark>
    <Placemark>
      <name>Lawson's Landing</name>
      <styleUrl>#IconStyle00</styleUrl>
      <Snippet></Snippet>
      <Point>
        <extrude>0</extrude>
        <altitudeMode>relativeToGround</altitudeMode>
        <coordinates> -122.968353,38.232181,0.000000</coordinates>
      </Point>
    </Placemark>
    <Placemark>
      <name>Walker Creek Delta</name>
      <styleUrl>#IconStyle00</styleUrl>
      <Snippet></Snippet>
      <Point>
        <extrude>0</extrude>
        <altitudeMode>relativeToGround</altitudeMode>
        <coordinates> -122.927262,38.212050,0.000000</coordinates>
      </Point>
    </Placemark>
    <Placemark>
      <name>Keys Creek Public Fishing Access</name>
      <styleUrl>#IconStyle00</styleUrl>
      <Snippet></Snippet>
      <Point>
        <extrude>0</extrude>
        <altitudeMode>relativeToGround</altitudeMode>
        <coordinates> -122.910716,38.234642,0.000000</coordinates>
      </Point>
    </Placemark>
    <Placemark>
      <name>Pierce Point Ranch</name>
      <styleUrl>#IconStyle00</styleUrl>
      <Snippet></Snippet>
      <Point>
        <extrude>0</extrude>
        <altitudeMode>relativeToGround</altitudeMode>
        <coordinates> -122.955105,38.190371,0.000000</coordinates>
      </Point>
    </Placemark>
    <Placemark>
      <name>McClures Beach</name>
      <styleUrl>#IconStyle00</styleUrl>
      <Snippet></Snippet>
      <Point>
        <extrude>0</extrude>
        <altitudeMode>relativeToGround</altitudeMode>
        <coordinates> -122.965175,38.184172,0.000000</coordinates>
      </Point>
    </Placemark>
    <Placemark>
      <name>Kehoe Marsh and Beach</name>
      <styleUrl>#IconStyle00</styleUrl>
      <Snippet></Snippet>
      <Point>
        <extrude>0</extrude>
        <altitudeMode>relativeToGround</altitudeMode>
        <coordinates> -122.949193,38.158937,0.000000</coordinates>
      </Point>
    </Placemark>
    <Placemark>
      <name>Tomales Bay State Park</name>
      <styleUrl>#IconStyle00</styleUrl>
      <Snippet></Snippet>
      <Point>
        <extrude>0</extrude>
        <altitudeMode>relativeToGround</altitudeMode>
        <coordinates> -122.889818,38.129972,0.000000</coordinates>
      </Point>
    </Placemark>
    <Placemark>
      <name>Marconi Conference Center</name>
      <styleUrl>#IconStyle00</styleUrl>
      <Snippet></Snippet>
      <Point>
        <extrude>0</extrude>
        <altitudeMode>relativeToGround</altitudeMode>
        <coordinates> -122.872178,38.140838,0.000000</coordinates>
      </Point>
    </Placemark>
    <Placemark>
      <name>Livermore Marsh</name>
      <styleUrl>#IconStyle00</styleUrl>
      <Snippet></Snippet>
      <Point>
        <extrude>0</extrude>
        <altitudeMode>relativeToGround</altitudeMode>
        <coordinates> -122.891216,38.163766,0.000000</coordinates>
      </Point>
    </Placemark>
    <Placemark>
      <name>Sea Ranch Blufftop Trail</name>
      <styleUrl>#IconStyle00</styleUrl>
      <Snippet></Snippet>
      <Point>
        <extrude>0</extrude>
        <altitudeMode>relativeToGround</altitudeMode>
        <coordinates> -123.512273,38.741271,0.000000</coordinates>
      </Point>
    </Placemark>
    <Placemark>
      <name>Sea Ranch Public Access Trails</name>
      <styleUrl>#IconStyle00</styleUrl>
      <Snippet></Snippet>
      <Point>
        <extrude>0</extrude>
        <altitudeMode>relativeToGround</altitudeMode>
        <coordinates> -123.483173,38.727445,0.000000</coordinates>
      </Point>
    </Placemark>
    <Placemark>
      <name>Sea Ranch Public Access Trails</name>
      <styleUrl>#IconStyle00</styleUrl>
      <Snippet></Snippet>
      <Point>
        <extrude>0</extrude>
        <altitudeMode>relativeToGround</altitudeMode>
        <coordinates> -123.459554,38.715564,0.000000</coordinates>
      </Point>
    </Placemark>
    <Placemark>
      <name>Sea Ranch Public Access Trails</name>
      <styleUrl>#IconStyle00</styleUrl>
      <Snippet></Snippet>
      <Point>
        <extrude>0</extrude>
        <altitudeMode>relativeToGround</altitudeMode>
        <coordinates> -123.440562,38.699072,0.000000</coordinates>
      </Point>
    </Placemark>
    <Placemark>
      <name>Sea Ranch Public Access Trails</name>
      <styleUrl>#IconStyle00</styleUrl>
      <Snippet></Snippet>
      <Point>
        <extrude>0</extrude>
        <altitudeMode>relativeToGround</altitudeMode>
        <coordinates> -123.430947,38.680511,0.000000</coordinates>
      </Point>
    </Placemark>
    <Placemark>
      <name>Salal Trail</name>
      <styleUrl>#IconStyle00</styleUrl>
      <Snippet></Snippet>
      <Point>
        <extrude>0</extrude>
        <altitudeMode>relativeToGround</altitudeMode>
        <coordinates> -123.516929,38.745612,0.000000</coordinates>
      </Point>
    </Placemark>
    <Placemark>
      <name>Fort Funston</name>
      <styleUrl>#IconStyle00</styleUrl>
      <Snippet></Snippet>
      <Point>
        <extrude>0</extrude>
        <altitudeMode>relativeToGround</altitudeMode>
        <coordinates> -122.502654,37.712728,0.000000</coordinates>
      </Point>
    </Placemark>
    <Placemark>
      <name>Daisaku Ikeda Canyon</name>
      <styleUrl>#IconStyle00</styleUrl>
      <Snippet></Snippet>
      <Point>
        <extrude>0</extrude>
        <altitudeMode>relativeToGround</altitudeMode>
        <coordinates> -122.494431,37.680433,0.000000</coordinates>
      </Point>
    </Placemark>
    <Placemark>
      <name>Mussel Rock City Park (Daly City)</name>
      <styleUrl>#IconStyle00</styleUrl>
      <Snippet></Snippet>
      <Point>
        <extrude>0</extrude>
        <altitudeMode>relativeToGround</altitudeMode>
        <coordinates> -122.494415,37.665567,0.000000</coordinates>
      </Point>
    </Placemark>
    <Placemark>
      <name>Sharp Park Beach and Pacifica Pier</name>
      <styleUrl>#IconStyle00</styleUrl>
      <Snippet></Snippet>
      <Point>
        <extrude>0</extrude>
        <altitudeMode>relativeToGround</altitudeMode>
        <coordinates> -122.493885,37.629703,0.000000</coordinates>
      </Point>
    </Placemark>
    <Placemark>
      <name>Kirby Cove</name>
      <styleUrl>#IconStyle00</styleUrl>
      <Snippet></Snippet>
      <Point>
        <extrude>0</extrude>
        <altitudeMode>relativeToGround</altitudeMode>
        <coordinates> -122.489631,37.827288,0.000000</coordinates>
      </Point>
    </Placemark>
    <Placemark>
      <name>Coastal Trail (San Francisco)</name>
      <styleUrl>#IconStyle00</styleUrl>
      <Snippet></Snippet>
      <Point>
        <extrude>0</extrude>
        <altitudeMode>relativeToGround</altitudeMode>
        <coordinates> -122.479182,37.798279,0.000000</coordinates>
      </Point>
    </Placemark>
    <Placemark>
      <name>Baker Beach</name>
      <styleUrl>#IconStyle00</styleUrl>
      <Snippet></Snippet>
      <Point>
        <extrude>0</extrude>
        <altitudeMode>relativeToGround</altitudeMode>
        <coordinates> -122.484831,37.790593,0.000000</coordinates>
      </Point>
    </Placemark>
    <Placemark>
      <name>China Beach (San Francisco)</name>
      <styleUrl>#IconStyle00</styleUrl>
      <Snippet></Snippet>
      <Point>
        <extrude>0</extrude>
        <altitudeMode>relativeToGround</altitudeMode>
        <coordinates> -122.489390,37.788127,0.000000</coordinates>
      </Point>
    </Placemark>
    <Placemark>
      <name>Ocean Beach (San Francisco)</name>
      <styleUrl>#IconStyle00</styleUrl>
      <Snippet></Snippet>
      <Point>
        <extrude>0</extrude>
        <altitudeMode>relativeToGround</altitudeMode>
        <coordinates> -122.511401,37.768414,0.000000</coordinates>
      </Point>
    </Placemark>
    <Placemark>
      <name>Fort Point</name>
      <styleUrl>#IconStyle00</styleUrl>
      <Snippet></Snippet>
      <Point>
        <extrude>0</extrude>
        <altitudeMode>relativeToGround</altitudeMode>
        <coordinates> -122.476911,37.808883,0.000000</coordinates>
      </Point>
    </Placemark>
    <Placemark>
      <name>Moat Creek Access</name>
      <styleUrl>#IconStyle00</styleUrl>
      <Snippet></Snippet>
      <Point>
        <extrude>0</extrude>
        <altitudeMode>relativeToGround</altitudeMode>
        <coordinates> -123.675114,38.881054,0.000000</coordinates>
      </Point>
    </Placemark>
    <Placemark>
      <name>Slide Ranch</name>
      <styleUrl>#IconStyle00</styleUrl>
      <Snippet></Snippet>
      <Point>
        <extrude>0</extrude>
        <altitudeMode>relativeToGround</altitudeMode>
        <coordinates> -122.597445,37.874628,0.000000</coordinates>
      </Point>
    </Placemark>
    <Placemark>
      <name>Muir Overlook</name>
      <styleUrl>#IconStyle00</styleUrl>
      <Snippet></Snippet>
      <Point>
        <extrude>0</extrude>
        <altitudeMode>relativeToGround</altitudeMode>
        <coordinates> -122.586489,37.863965,0.000000</coordinates>
      </Point>
    </Placemark>
    <Placemark>
      <name>Muir Beach</name>
      <styleUrl>#IconStyle00</styleUrl>
      <Snippet></Snippet>
      <Point>
        <extrude>0</extrude>
        <altitudeMode>relativeToGround</altitudeMode>
        <coordinates> -122.577619,37.859755,0.000000</coordinates>
      </Point>
    </Placemark>
    <Placemark>
      <name>Coastal Trail (Marin County)</name>
      <styleUrl>#IconStyle00</styleUrl>
      <Snippet></Snippet>
      <Point>
        <extrude>0</extrude>
        <altitudeMode>relativeToGround</altitudeMode>
        <coordinates> -122.559735,37.849397,0.000000</coordinates>
      </Point>
    </Placemark>
    <Placemark>
      <name>Tennessee Valley</name>
      <styleUrl>#IconStyle00</styleUrl>
      <Snippet></Snippet>
      <Point>
        <extrude>0</extrude>
        <altitudeMode>relativeToGround</altitudeMode>
        <coordinates> -122.545797,37.849044,0.000000</coordinates>
      </Point>
    </Placemark>
    <Placemark>
      <name>Rodeo Beach</name>
      <styleUrl>#IconStyle00</styleUrl>
      <Snippet></Snippet>
      <Point>
        <extrude>0</extrude>
        <altitudeMode>relativeToGround</altitudeMode>
        <coordinates> -122.536371,37.829631,0.000000</coordinates>
      </Point>
    </Placemark>
    <Placemark>
      <name>YMCA Point Bonita Center</name>
      <styleUrl>#IconStyle00</styleUrl>
      <Snippet></Snippet>
      <Point>
        <extrude>0</extrude>
        <altitudeMode>relativeToGround</altitudeMode>
        <coordinates> -122.530219,37.820515,0.000000</coordinates>
      </Point>
    </Placemark>
    <Placemark>
      <name>Point Bonita Lighthouse</name>
      <styleUrl>#IconStyle00</styleUrl>
      <Snippet></Snippet>
      <Point>
        <extrude>0</extrude>
        <altitudeMode>relativeToGround</altitudeMode>
        <coordinates> -122.529602,37.815571,0.000000</coordinates>
      </Point>
    </Placemark>
    <Placemark>
      <name>Lands End</name>
      <styleUrl>#IconStyle00</styleUrl>
      <Snippet></Snippet>
      <Point>
        <extrude>0</extrude>
        <altitudeMode>relativeToGround</altitudeMode>
        <coordinates> -122.506931,37.786437,0.000000</coordinates>
      </Point>
    </Placemark>
    <Placemark>
      <name>Garcia River Access</name>
      <styleUrl>#IconStyle00</styleUrl>
      <Snippet></Snippet>
      <Point>
        <extrude>0</extrude>
        <altitudeMode>relativeToGround</altitudeMode>
        <coordinates> -123.723969,38.945335,0.000000</coordinates>
      </Point>
    </Placemark>
    <Placemark>
      <name>Arena Cove</name>
      <styleUrl>#IconStyle00</styleUrl>
      <Snippet></Snippet>
      <Point>
        <extrude>0</extrude>
        <altitudeMode>relativeToGround</altitudeMode>
        <coordinates> -123.710188,38.914550,0.000000</coordinates>
      </Point>
    </Placemark>
    <Placemark>
      <name>Overlooks (Schooner Gulch, Mendocino County)</name>
      <styleUrl>#IconStyle00</styleUrl>
      <Snippet></Snippet>
      <Point>
        <extrude>0</extrude>
        <altitudeMode>relativeToGround</altitudeMode>
        <coordinates> -123.696613,38.899344,0.000000</coordinates>
      </Point>
    </Placemark>
    <Placemark>
      <name>Point Arena Lighthouse</name>
      <styleUrl>#IconStyle00</styleUrl>
      <Snippet></Snippet>
      <Point>
        <extrude>0</extrude>
        <altitudeMode>relativeToGround</altitudeMode>
        <coordinates> -123.740574,38.954687,0.000000</coordinates>
      </Point>
    </Placemark>
    <Placemark>
      <name>North Horseshoe Cove</name>
      <styleUrl>#IconStyle00</styleUrl>
      <Snippet></Snippet>
      <Point>
        <extrude>0</extrude>
        <altitudeMode>relativeToGround</altitudeMode>
        <coordinates> -123.365864,38.614165,0.000000</coordinates>
      </Point>
    </Placemark>
    <Placemark>
      <name>Kruse Ranch</name>
      <styleUrl>#IconStyle00</styleUrl>
      <Snippet></Snippet>
      <Point>
        <extrude>0</extrude>
        <altitudeMode>relativeToGround</altitudeMode>
        <coordinates> -123.358956,38.604724,0.000000</coordinates>
      </Point>
    </Placemark>
    <Placemark>
      <name>Fisk Mill Cove</name>
      <styleUrl>#IconStyle00</styleUrl>
      <Snippet></Snippet>
      <Point>
        <extrude>0</extrude>
        <altitudeMode>relativeToGround</altitudeMode>
        <coordinates> -123.346430,38.595882,0.000000</coordinates>
      </Point>
    </Placemark>
    <Placemark>
      <name>Kruse Rhododendron State Reserve</name>
      <styleUrl>#IconStyle00</styleUrl>
      <Snippet></Snippet>
      <Point>
        <extrude>0</extrude>
        <altitudeMode>relativeToGround</altitudeMode>
        <coordinates> -123.331047,38.593199,0.000000</coordinates>
      </Point>
    </Placemark>
    <Placemark>
      <name>Ocean Cove Reserve</name>
      <styleUrl>#IconStyle00</styleUrl>
      <Snippet></Snippet>
      <Point>
        <extrude>0</extrude>
        <altitudeMode>relativeToGround</altitudeMode>
        <coordinates> -123.303309,38.555701,0.000000</coordinates>
      </Point>
    </Placemark>
    <Placemark>
      <name>Timber Cove Campground and Boat Landing</name>
      <styleUrl>#IconStyle00</styleUrl>
      <Snippet></Snippet>
      <Point>
        <extrude>0</extrude>
        <altitudeMode>relativeToGround</altitudeMode>
        <coordinates> -123.272581,38.533238,0.000000</coordinates>
      </Point>
    </Placemark>
    <Placemark>
      <name>Fort Ross State Historic Park</name>
      <styleUrl>#IconStyle00</styleUrl>
      <Snippet></Snippet>
      <Point>
        <extrude>0</extrude>
        <altitudeMode>relativeToGround</altitudeMode>
        <coordinates> -123.241569,38.517501,0.000000</coordinates>
      </Point>
    </Placemark>
    <Placemark>
      <name>Mallo Pass Creek Vista Point</name>
      <styleUrl>#IconStyle00</styleUrl>
      <Snippet></Snippet>
      <Point>
        <extrude>0</extrude>
        <altitudeMode>relativeToGround</altitudeMode>
        <coordinates> -123.688272,39.033336,0.000000</coordinates>
      </Point>
    </Placemark>
    <Placemark>
      <name>Manchester State Beach</name>
      <styleUrl>#IconStyle00</styleUrl>
      <Snippet></Snippet>
      <Point>
        <extrude>0</extrude>
        <altitudeMode>relativeToGround</altitudeMode>
        <coordinates> -123.717665,38.967507,0.000000</coordinates>
      </Point>
    </Placemark>
    <Placemark>
      <name>Tomales Bay State Park - Millerton Point</name>
      <styleUrl>#IconStyle00</styleUrl>
      <Snippet></Snippet>
      <Point>
        <extrude>0</extrude>
        <altitudeMode>relativeToGround</altitudeMode>
        <coordinates> -122.849918,38.109141,0.000000</coordinates>
      </Point>
    </Placemark>
    <Placemark>
      <name>Chicken Ranch Beach</name>
      <styleUrl>#IconStyle00</styleUrl>
      <Snippet></Snippet>
      <Point>
        <extrude>0</extrude>
        <altitudeMode>relativeToGround</altitudeMode>
        <coordinates> -122.865094,38.109589,0.000000</coordinates>
      </Point>
    </Placemark>
    <Placemark>
      <name>Dana Marsh / Path to Beach</name>
      <styleUrl>#IconStyle00</styleUrl>
      <Snippet></Snippet>
      <Point>
        <extrude>0</extrude>
        <altitudeMode>relativeToGround</altitudeMode>
        <coordinates> -122.860944,38.103585,0.000000</coordinates>
      </Point>
    </Placemark>
    <Placemark>
      <name>Martinelli Park</name>
      <styleUrl>#IconStyle00</styleUrl>
      <Snippet></Snippet>
      <Point>
        <extrude>0</extrude>
        <altitudeMode>relativeToGround</altitudeMode>
        <coordinates> -122.849888,38.094910,0.000000</coordinates>
      </Point>
    </Placemark>
    <Placemark>
      <name>Shields Saltmarsh</name>
      <styleUrl>#IconStyle00</styleUrl>
      <Snippet></Snippet>
      <Point>
        <extrude>0</extrude>
        <altitudeMode>relativeToGround</altitudeMode>
        <coordinates> -122.834732,38.081503,0.000000</coordinates>
      </Point>
    </Placemark>
    <Placemark>
      <name>Tomales Bay Trailhead</name>
      <styleUrl>#IconStyle00</styleUrl>
      <Snippet></Snippet>
      <Point>
        <extrude>0</extrude>
        <altitudeMode>relativeToGround</altitudeMode>
        <coordinates> -122.838607,38.086076,0.000000</coordinates>
      </Point>
    </Placemark>
    <Placemark>
      <name>Tomales Bay Ecological Reserve</name>
      <styleUrl>#IconStyle00</styleUrl>
      <Snippet></Snippet>
      <Point>
        <extrude>0</extrude>
        <altitudeMode>relativeToGround</altitudeMode>
        <coordinates> -122.827699,38.079523,0.000000</coordinates>
      </Point>
    </Placemark>
    <Placemark>
      <name>Point Reyes National Seashore</name>
      <styleUrl>#IconStyle00</styleUrl>
      <Snippet></Snippet>
      <Point>
        <extrude>0</extrude>
        <altitudeMode>relativeToGround</altitudeMode>
        <coordinates> -122.798800,38.044209,0.000000</coordinates>
      </Point>
    </Placemark>
    <Placemark>
      <name>Point Reyes Hostel</name>
      <styleUrl>#IconStyle00</styleUrl>
      <Snippet></Snippet>
      <Point>
        <extrude>0</extrude>
        <altitudeMode>relativeToGround</altitudeMode>
        <coordinates> -122.861344,38.042579,0.000000</coordinates>
      </Point>
    </Placemark>
    <Placemark>
      <name>Coastside Trail (San Mateo County)</name>
      <styleUrl>#IconStyle00</styleUrl>
      <Snippet></Snippet>
      <Point>
        <extrude>0</extrude>
        <altitudeMode>relativeToGround</altitudeMode>
        <coordinates> -122.448960,37.476464,0.000000</coordinates>
      </Point>
    </Placemark>
    <Placemark>
      <name>Francis Beach</name>
      <styleUrl>#IconStyle00</styleUrl>
      <Snippet></Snippet>
      <Point>
        <extrude>0</extrude>
        <altitudeMode>relativeToGround</altitudeMode>
        <coordinates> -122.445459,37.465128,0.000000</coordinates>
      </Point>
    </Placemark>
    <Placemark>
      <name>Overlook (Francis Beach, San Mateo County)</name>
      <styleUrl>#IconStyle00</styleUrl>
      <Snippet></Snippet>
      <Point>
        <extrude>0</extrude>
        <altitudeMode>relativeToGround</altitudeMode>
        <coordinates> -122.443559,37.453216,0.000000</coordinates>
      </Point>
    </Placemark>
    <Placemark>
      <name>Pelican Point R.V. Park (San Mateo County)</name>
      <styleUrl>#IconStyle00</styleUrl>
      <Snippet></Snippet>
      <Point>
        <extrude>0</extrude>
        <altitudeMode>relativeToGround</altitudeMode>
        <coordinates> -122.439365,37.430474,0.000000</coordinates>
      </Point>
    </Placemark>
    <Placemark>
      <name>Martin's Beach</name>
      <styleUrl>#IconStyle00</styleUrl>
      <Snippet></Snippet>
      <Point>
        <extrude>0</extrude>
        <altitudeMode>relativeToGround</altitudeMode>
        <coordinates> -122.406506,37.376177,0.000000</coordinates>
      </Point>
    </Placemark>
    <Placemark>
      <name>East Breakwater</name>
      <styleUrl>#IconStyle00</styleUrl>
      <Snippet></Snippet>
      <Point>
        <extrude>0</extrude>
        <altitudeMode>relativeToGround</altitudeMode>
        <coordinates> -122.477542,37.498218,0.000000</coordinates>
      </Point>
    </Placemark>
    <Placemark>
      <name>Fish Rock Beach</name>
      <styleUrl>#IconStyle00</styleUrl>
      <Snippet></Snippet>
      <Point>
        <extrude>0</extrude>
        <altitudeMode>relativeToGround</altitudeMode>
        <coordinates> -123.581645,38.803001,0.000000</coordinates>
      </Point>
    </Placemark>
    <Placemark>
      <name>Collins Landing</name>
      <styleUrl>#IconStyle00</styleUrl>
      <Snippet></Snippet>
      <Point>
        <extrude>0</extrude>
        <altitudeMode>relativeToGround</altitudeMode>
        <coordinates> -123.568718,38.794501,0.000000</coordinates>
      </Point>
    </Placemark>
    <Placemark>
      <name>Gualala River</name>
      <styleUrl>#IconStyle00</styleUrl>
      <Snippet></Snippet>
      <Point>
        <extrude>0</extrude>
        <altitudeMode>relativeToGround</altitudeMode>
        <coordinates> -123.533237,38.769309,0.000000</coordinates>
      </Point>
    </Placemark>
    <Placemark>
      <name>Gualala Point Regional Park</name>
      <styleUrl>#IconStyle00</styleUrl>
      <Snippet></Snippet>
      <Point>
        <extrude>0</extrude>
        <altitudeMode>relativeToGround</altitudeMode>
        <coordinates> -123.529411,38.758973,0.000000</coordinates>
      </Point>
    </Placemark>
    <Placemark>
      <name>Rivers End</name>
      <styleUrl>#IconStyle00</styleUrl>
      <Snippet></Snippet>
      <Point>
        <extrude>0</extrude>
        <altitudeMode>relativeToGround</altitudeMode>
        <coordinates> -123.125612,38.451266,0.000000</coordinates>
      </Point>
    </Placemark>
    <Placemark>
      <name>Jenner Visitor Center</name>
      <styleUrl>#IconStyle00</styleUrl>
      <Snippet></Snippet>
      <Point>
        <extrude>0</extrude>
        <altitudeMode>relativeToGround</altitudeMode>
        <coordinates> -123.118738,38.450518,0.000000</coordinates>
      </Point>
    </Placemark>
    <Placemark>
      <name>Bridgehaven Campground</name>
      <styleUrl>#IconStyle00</styleUrl>
      <Snippet></Snippet>
      <Point>
        <extrude>0</extrude>
        <altitudeMode>relativeToGround</altitudeMode>
        <coordinates> -123.106364,38.431802,0.000000</coordinates>
      </Point>
    </Placemark>
    <Placemark>
      <name>Wright's Beach</name>
      <styleUrl>#IconStyle00</styleUrl>
      <Snippet></Snippet>
      <Point>
        <extrude>0</extrude>
        <altitudeMode>relativeToGround</altitudeMode>
        <coordinates> -123.095334,38.405547,0.000000</coordinates>
      </Point>
    </Placemark>
    <Placemark>
      <name>Duncans Cove and Landing</name>
      <styleUrl>#IconStyle00</styleUrl>
      <Snippet></Snippet>
      <Point>
        <extrude>0</extrude>
        <altitudeMode>relativeToGround</altitudeMode>
        <coordinates> -123.092705,38.395618,0.000000</coordinates>
      </Point>
    </Placemark>
    <Placemark>
      <name>Pomo Canyon Campground</name>
      <styleUrl>#IconStyle00</styleUrl>
      <Snippet></Snippet>
      <Point>
        <extrude>0</extrude>
        <altitudeMode>relativeToGround</altitudeMode>
        <coordinates> -123.091218,38.441251,0.000000</coordinates>
      </Point>
    </Placemark>
    <Placemark>
      <name>Duncans Mills Camping Club</name>
      <styleUrl>#IconStyle00</styleUrl>
      <Snippet></Snippet>
      <Point>
        <extrude>0</extrude>
        <altitudeMode>relativeToGround</altitudeMode>
        <coordinates> -123.054139,38.453213,0.000000</coordinates>
      </Point>
    </Placemark>
    <Placemark>
      <name>Abbotts Lagoon</name>
      <styleUrl>#IconStyle00</styleUrl>
      <Snippet></Snippet>
      <Point>
        <extrude>0</extrude>
        <altitudeMode>relativeToGround</altitudeMode>
        <coordinates> -122.947302,38.117870,0.000000</coordinates>
      </Point>
    </Placemark>
    <Placemark>
      <name>North Beach (Point Reyes)</name>
      <styleUrl>#IconStyle00</styleUrl>
      <Snippet></Snippet>
      <Point>
        <extrude>0</extrude>
        <altitudeMode>relativeToGround</altitudeMode>
        <coordinates> -122.977881,38.069604,0.000000</coordinates>
      </Point>
    </Placemark>
    <Placemark>
      <name>Point Reyes Headlands</name>
      <styleUrl>#IconStyle00</styleUrl>
      <Snippet></Snippet>
      <Point>
        <extrude>0</extrude>
        <altitudeMode>relativeToGround</altitudeMode>
        <coordinates> -122.994992,37.997988,0.000000</coordinates>
      </Point>
    </Placemark>
    <Placemark>
      <name>Drakes Beach</name>
      <styleUrl>#IconStyle00</styleUrl>
      <Snippet></Snippet>
      <Point>
        <extrude>0</extrude>
        <altitudeMode>relativeToGround</altitudeMode>
        <coordinates> -122.961775,38.027754,0.000000</coordinates>
      </Point>
    </Placemark>
    <Placemark>
      <name>Limantour Beach</name>
      <styleUrl>#IconStyle00</styleUrl>
      <Snippet></Snippet>
      <Point>
        <extrude>0</extrude>
        <altitudeMode>relativeToGround</altitudeMode>
        <coordinates> -122.866928,38.021839,0.000000</coordinates>
      </Point>
    </Placemark>
    <Placemark>
      <name>Limantour Estero Reserve</name>
      <styleUrl>#IconStyle00</styleUrl>
      <Snippet></Snippet>
      <Point>
        <extrude>0</extrude>
        <altitudeMode>relativeToGround</altitudeMode>
        <coordinates> -122.910828,38.033177,0.000000</coordinates>
      </Point>
    </Placemark>
    <Placemark>
      <name>Drakes Estero</name>
      <styleUrl>#IconStyle00</styleUrl>
      <Snippet></Snippet>
      <Point>
        <extrude>0</extrude>
        <altitudeMode>relativeToGround</altitudeMode>
        <coordinates> -122.941634,38.055323,0.000000</coordinates>
      </Point>
    </Placemark>
    <Placemark>
      <name>Palomarin Trailhead</name>
      <styleUrl>#IconStyle00</styleUrl>
      <Snippet></Snippet>
      <Point>
        <extrude>0</extrude>
        <altitudeMode>relativeToGround</altitudeMode>
        <coordinates> -122.733479,37.928527,0.000000</coordinates>
      </Point>
    </Placemark>
    <Placemark>
      <name>Point Reyes Bird Observatory</name>
      <styleUrl>#IconStyle00</styleUrl>
      <Snippet></Snippet>
      <Point>
        <extrude>0</extrude>
        <altitudeMode>relativeToGround</altitudeMode>
        <coordinates> -122.736179,37.929814,0.000000</coordinates>
      </Point>
    </Placemark>
    <Placemark>
      <name>Duxbury Reef Marine Reserve</name>
      <styleUrl>#IconStyle00</styleUrl>
      <Snippet></Snippet>
      <Point>
        <extrude>0</extrude>
        <altitudeMode>relativeToGround</altitudeMode>
        <coordinates> -122.699391,37.889118,0.000000</coordinates>
      </Point>
    </Placemark>
    <Placemark>
      <name>Agate Beach (Marin County)</name>
      <styleUrl>#IconStyle00</styleUrl>
      <Snippet></Snippet>
      <Point>
        <extrude>0</extrude>
        <altitudeMode>relativeToGround</altitudeMode>
        <coordinates> -122.708866,37.897194,0.000000</coordinates>
      </Point>
    </Placemark>
    <Placemark>
      <name>Bolinas Overlook</name>
      <styleUrl>#IconStyle00</styleUrl>
      <Snippet></Snippet>
      <Point>
        <extrude>0</extrude>
        <altitudeMode>relativeToGround</altitudeMode>
        <coordinates> -122.693660,37.902194,0.000000</coordinates>
      </Point>
    </Placemark>
    <Placemark>
      <name>Bolinas Beach</name>
      <styleUrl>#IconStyle00</styleUrl>
      <Snippet></Snippet>
      <Point>
        <extrude>0</extrude>
        <altitudeMode>relativeToGround</altitudeMode>
        <coordinates> -122.685611,37.905052,0.000000</coordinates>
      </Point>
    </Placemark>
    <Placemark>
      <name>Seadrift Beach</name>
      <styleUrl>#IconStyle00</styleUrl>
      <Snippet></Snippet>
      <Point>
        <extrude>0</extrude>
        <altitudeMode>relativeToGround</altitudeMode>
        <coordinates> -122.669255,37.906653,0.000000</coordinates>
      </Point>
    </Placemark>
    <Placemark>
      <name>Stinson Beach</name>
      <styleUrl>#IconStyle00</styleUrl>
      <Snippet></Snippet>
      <Point>
        <extrude>0</extrude>
        <altitudeMode>relativeToGround</altitudeMode>
        <coordinates> -122.636615,37.893314,0.000000</coordinates>
      </Point>
    </Placemark>
    <Placemark>
      <name>Red Rock Beach (Marin County)</name>
      <styleUrl>#IconStyle00</styleUrl>
      <Snippet></Snippet>
      <Point>
        <extrude>0</extrude>
        <altitudeMode>relativeToGround</altitudeMode>
        <coordinates> -122.633211,37.890654,0.000000</coordinates>
      </Point>
    </Placemark>
    <Placemark>
      <name>Steep Ravine Beach</name>
      <styleUrl>#IconStyle00</styleUrl>
      <Snippet></Snippet>
      <Point>
        <extrude>0</extrude>
        <altitudeMode>relativeToGround</altitudeMode>
        <coordinates> -122.626338,37.886474,0.000000</coordinates>
      </Point>
    </Placemark>
    <Placemark>
      <name>Audubon Canyon Ranch</name>
      <styleUrl>#IconStyle00</styleUrl>
      <Snippet></Snippet>
      <Point>
        <extrude>0</extrude>
        <altitudeMode>relativeToGround</altitudeMode>
        <coordinates> -122.680987,37.930229,0.000000</coordinates>
      </Point>
    </Placemark>
    <Placemark>
      <name>Bolinas Lagoon Nature Preserve</name>
      <styleUrl>#IconStyle00</styleUrl>
      <Snippet></Snippet>
      <Point>
        <extrude>0</extrude>
        <altitudeMode>relativeToGround</altitudeMode>
        <coordinates> -122.682249,37.921858,0.000000</coordinates>
      </Point>
    </Placemark>
    <Placemark>
      <name>Salmon Creek Beach</name>
      <styleUrl>#IconStyle00</styleUrl>
      <Snippet></Snippet>
      <Point>
        <extrude>0</extrude>
        <altitudeMode>relativeToGround</altitudeMode>
        <coordinates> -123.066815,38.356071,0.000000</coordinates>
      </Point>
    </Placemark>
    <Placemark>
      <name>Bodega Head</name>
      <styleUrl>#IconStyle00</styleUrl>
      <Snippet></Snippet>
      <Point>
        <extrude>0</extrude>
        <altitudeMode>relativeToGround</altitudeMode>
        <coordinates> -123.059760,38.300140,0.000000</coordinates>
      </Point>
    </Placemark>
    <Placemark>
      <name>Campbell Cove</name>
      <styleUrl>#IconStyle00</styleUrl>
      <Snippet></Snippet>
      <Point>
        <extrude>0</extrude>
        <altitudeMode>relativeToGround</altitudeMode>
        <coordinates> -123.057719,38.302977,0.000000</coordinates>
      </Point>
    </Placemark>
    <Placemark>
      <name>Doran Beach Regional Park</name>
      <styleUrl>#IconStyle00</styleUrl>
      <Snippet></Snippet>
      <Point>
        <extrude>0</extrude>
        <altitudeMode>relativeToGround</altitudeMode>
        <coordinates> -123.041297,38.314716,0.000000</coordinates>
      </Point>
    </Placemark>
    <Placemark>
      <name>Pinnacle Gulch Trail</name>
      <styleUrl>#IconStyle00</styleUrl>
      <Snippet></Snippet>
      <Point>
        <extrude>0</extrude>
        <altitudeMode>relativeToGround</altitudeMode>
        <coordinates> -123.011332,38.316886,0.000000</coordinates>
      </Point>
    </Placemark>
    <Placemark>
      <name>Fort Ross Reef Campground</name>
      <styleUrl>#IconStyle00</styleUrl>
      <Snippet></Snippet>
      <Point>
        <extrude>0</extrude>
        <altitudeMode>relativeToGround</altitudeMode>
        <coordinates> -123.213417,38.501139,0.000000</coordinates>
      </Point>
    </Placemark>
    <Placemark>
      <name>Vista Trail (Sonoma County)</name>
      <styleUrl>#IconStyle00</styleUrl>
      <Snippet></Snippet>
      <Point>
        <extrude>0</extrude>
        <altitudeMode>relativeToGround</altitudeMode>
        <coordinates> -123.161824,38.478224,0.000000</coordinates>
      </Point>
    </Placemark>
    <Placemark>
      <name>Russian Gulch (Sonoma County)</name>
      <styleUrl>#IconStyle00</styleUrl>
      <Snippet></Snippet>
      <Point>
        <extrude>0</extrude>
        <altitudeMode>relativeToGround</altitudeMode>
        <coordinates> -123.153386,38.467450,0.000000</coordinates>
      </Point>
    </Placemark>
    <Placemark>
      <name>North Jenner Beaches</name>
      <styleUrl>#IconStyle00</styleUrl>
      <Snippet></Snippet>
      <Point>
        <extrude>0</extrude>
        <altitudeMode>relativeToGround</altitudeMode>
        <coordinates> -123.140289,38.457652,0.000000</coordinates>
      </Point>
    </Placemark>
    <Placemark>
      <name>Vista Points (Jenner to Bridgehaven, Sonoma County)</name>
      <styleUrl>#IconStyle00</styleUrl>
      <Snippet></Snippet>
      <Point>
        <extrude>0</extrude>
        <altitudeMode>relativeToGround</altitudeMode>
        <coordinates> -123.106572,38.437840,0.000000</coordinates>
      </Point>
    </Placemark>
    <Placemark>
      <name>Montara State Beach</name>
      <styleUrl>#IconStyle00</styleUrl>
      <Snippet></Snippet>
      <Point>
        <extrude>0</extrude>
        <altitudeMode>relativeToGround</altitudeMode>
        <coordinates> -122.514090,37.545530,0.000000</coordinates>
      </Point>
    </Placemark>
    <Placemark>
      <name>Gray Whale Cove State Beach</name>
      <styleUrl>#IconStyle00</styleUrl>
      <Snippet></Snippet>
      <Point>
        <extrude>0</extrude>
        <altitudeMode>relativeToGround</altitudeMode>
        <coordinates> -122.513237,37.565556,0.000000</coordinates>
      </Point>
    </Placemark>
    <Placemark>
      <name>Montara Lighthouse Hostel</name>
      <styleUrl>#IconStyle00</styleUrl>
      <Snippet></Snippet>
      <Point>
        <extrude>0</extrude>
        <altitudeMode>relativeToGround</altitudeMode>
        <coordinates> -122.517888,37.535755,0.000000</coordinates>
      </Point>
    </Placemark>
    <Placemark>
      <name>West Beach Trail</name>
      <styleUrl>#IconStyle00</styleUrl>
      <Snippet></Snippet>
      <Point>
        <extrude>0</extrude>
        <altitudeMode>relativeToGround</altitudeMode>
        <coordinates> -122.496332,37.497115,0.000000</coordinates>
      </Point>
    </Placemark>
    <Placemark>
      <name>Rockaway Beach</name>
      <styleUrl>#IconStyle00</styleUrl>
      <Snippet></Snippet>
      <Point>
        <extrude>0</extrude>
        <altitudeMode>relativeToGround</altitudeMode>
        <coordinates> -122.496932,37.609848,0.000000</coordinates>
      </Point>
    </Placemark>
    <Placemark>
      <name>San Pedro Beach</name>
      <styleUrl>#IconStyle00</styleUrl>
      <Snippet></Snippet>
      <Point>
        <extrude>0</extrude>
        <altitudeMode>relativeToGround</altitudeMode>
        <coordinates> -122.502840,37.596743,0.000000</coordinates>
      </Point>
    </Placemark>
    <Placemark>
      <name>Schooner Gulch</name>
      <styleUrl>#IconStyle00</styleUrl>
      <Snippet></Snippet>
      <Point>
        <extrude>0</extrude>
        <altitudeMode>relativeToGround</altitudeMode>
        <coordinates> -123.654320,38.865810,0.000000</coordinates>
      </Point>
    </Placemark>
    <Placemark>
      <name>Bowling Ball Beach</name>
      <styleUrl>#IconStyle00</styleUrl>
      <Snippet></Snippet>
      <Point>
        <extrude>0</extrude>
        <altitudeMode>relativeToGround</altitudeMode>
        <coordinates> -123.687439,38.894364,0.000000</coordinates>
      </Point>
    </Placemark>
    <Placemark>
      <name>Sea Ranch Public Access Trails</name>
      <styleUrl>#IconStyle00</styleUrl>
      <Snippet></Snippet>
      <Point>
        <extrude>0</extrude>
        <altitudeMode>relativeToGround</altitudeMode>
        <coordinates> -123.436908,38.692520,0.000000</coordinates>
      </Point>
    </Placemark>
    <Placemark>
      <name>Sea Ranch Public Access Trails</name>
      <styleUrl>#IconStyle00</styleUrl>
      <Snippet></Snippet>
      <Point>
        <extrude>0</extrude>
        <altitudeMode>relativeToGround</altitudeMode>
        <coordinates> -123.445906,38.703558,0.000000</coordinates>
      </Point>
    </Placemark>
    <Placemark>
      <name>Stump Beach</name>
      <styleUrl>#IconStyle00</styleUrl>
      <Snippet></Snippet>
      <Point>
        <extrude>0</extrude>
        <altitudeMode>relativeToGround</altitudeMode>
        <coordinates> -123.333168,38.582010,0.000000</coordinates>
      </Point>
    </Placemark>
    <Placemark>
      <name>Salt Point State Park</name>
      <styleUrl>#IconStyle00</styleUrl>
      <Snippet></Snippet>
      <Point>
        <extrude>0</extrude>
        <altitudeMode>relativeToGround</altitudeMode>
        <coordinates> -123.333662,38.574898,0.000000</coordinates>
      </Point>
    </Placemark>
    <Placemark>
      <name>Stillwater Cove Regional Park (Sonoma County)</name>
      <styleUrl>#IconStyle00</styleUrl>
      <Snippet></Snippet>
      <Point>
        <extrude>0</extrude>
        <altitudeMode>relativeToGround</altitudeMode>
        <coordinates> -123.287501,38.541564,0.000000</coordinates>
      </Point>
    </Placemark>
    <Placemark>
      <name>Casini Ranch Family Campground</name>
      <styleUrl>#IconStyle00</styleUrl>
      <Snippet></Snippet>
      <Point>
        <extrude>0</extrude>
        <altitudeMode>relativeToGround</altitudeMode>
        <coordinates> -123.045483,38.463469,0.000000</coordinates>
      </Point>
    </Placemark>
    <Placemark>
      <name>Goat Rock</name>
      <styleUrl>#IconStyle00</styleUrl>
      <Snippet></Snippet>
      <Point>
        <extrude>0</extrude>
        <altitudeMode>relativeToGround</altitudeMode>
        <coordinates> -123.126035,38.440756,0.000000</coordinates>
      </Point>
    </Placemark>
    <Placemark>
      <name>Shell Beach (Sonoma Coast State Beaches)</name>
      <styleUrl>#IconStyle00</styleUrl>
      <Snippet></Snippet>
      <Point>
        <extrude>0</extrude>
        <altitudeMode>relativeToGround</altitudeMode>
        <coordinates> -123.101102,38.417658,0.000000</coordinates>
      </Point>
    </Placemark>
    <Placemark>
      <name>Porto Bodega</name>
      <styleUrl>#IconStyle00</styleUrl>
      <Snippet></Snippet>
      <Point>
        <extrude>0</extrude>
        <altitudeMode>relativeToGround</altitudeMode>
        <coordinates> -123.050361,38.334355,0.000000</coordinates>
      </Point>
    </Placemark>
    <Placemark>
      <name>Spud Point Marina</name>
      <styleUrl>#IconStyle00</styleUrl>
      <Snippet></Snippet>
      <Point>
        <extrude>0</extrude>
        <altitudeMode>relativeToGround</altitudeMode>
        <coordinates> -123.057564,38.327400,0.000000</coordinates>
      </Point>
    </Placemark>
    <Placemark>
      <name>Mason's Marina</name>
      <styleUrl>#IconStyle00</styleUrl>
      <Snippet></Snippet>
      <Point>
        <extrude>0</extrude>
        <altitudeMode>relativeToGround</altitudeMode>
        <coordinates> -123.060015,38.333479,0.000000</coordinates>
      </Point>
    </Placemark>
    <Placemark>
      <name>Bodega Bay Harbor</name>
      <styleUrl>#IconStyle00</styleUrl>
      <Snippet></Snippet>
      <Point>
        <extrude>0</extrude>
        <altitudeMode>relativeToGround</altitudeMode>
        <coordinates> -123.049217,38.327327,0.000000</coordinates>
      </Point>
    </Placemark>
    <Placemark>
      <name>Bodega Marine Laboratory</name>
      <styleUrl>#IconStyle00</styleUrl>
      <Snippet></Snippet>
      <Point>
        <extrude>0</extrude>
        <altitudeMode>relativeToGround</altitudeMode>
        <coordinates> -123.072652,38.317853,0.000000</coordinates>
      </Point>
    </Placemark>
    <Placemark>
      <name>Westside Regional Park</name>
      <styleUrl>#IconStyle00</styleUrl>
      <Snippet></Snippet>
      <Point>
        <extrude>0</extrude>
        <altitudeMode>relativeToGround</altitudeMode>
        <coordinates> -123.055743,38.323523,0.000000</coordinates>
      </Point>
    </Placemark>
    <Placemark>
      <name>Miller Park Launching Facility</name>
      <styleUrl>#IconStyle00</styleUrl>
      <Snippet></Snippet>
      <Point>
        <extrude>0</extrude>
        <altitudeMode>relativeToGround</altitudeMode>
        <coordinates> -122.920564,38.199552,0.000000</coordinates>
      </Point>
    </Placemark>
    <Placemark>
      <name>Tomales Bay State Park - Marshall</name>
      <styleUrl>#IconStyle00</styleUrl>
      <Snippet></Snippet>
      <Point>
        <extrude>0</extrude>
        <altitudeMode>relativeToGround</altitudeMode>
        <coordinates> -122.909094,38.182880,0.000000</coordinates>
      </Point>
    </Placemark>
    <Placemark>
      <name>Marshall Beach</name>
      <styleUrl>#IconStyle00</styleUrl>
      <Snippet></Snippet>
      <Point>
        <extrude>0</extrude>
        <altitudeMode>relativeToGround</altitudeMode>
        <coordinates> -122.916316,38.163292,0.000000</coordinates>
      </Point>
    </Placemark>
    <Placemark>
      <name>Tomales Bay State Park- Inverness Ridge</name>
      <styleUrl>#IconStyle00</styleUrl>
      <Snippet></Snippet>
      <Point>
        <extrude>0</extrude>
        <altitudeMode>relativeToGround</altitudeMode>
        <coordinates> -122.843350,38.088157,0.000000</coordinates>
      </Point>
    </Placemark>
    <Placemark>
      <name>South Beach (Point Reyes)</name>
      <styleUrl>#IconStyle00</styleUrl>
      <Snippet></Snippet>
      <Point>
        <extrude>0</extrude>
        <altitudeMode>relativeToGround</altitudeMode>
        <coordinates> -122.994223,38.034950,0.000000</coordinates>
      </Point>
    </Placemark>
    <Placemark>
      <name>White House Pool</name>
      <styleUrl>#IconStyle00</styleUrl>
      <Snippet></Snippet>
      <Point>
        <extrude>0</extrude>
        <altitudeMode>relativeToGround</altitudeMode>
        <coordinates> -122.817826,38.060515,0.000000</coordinates>
      </Point>
    </Placemark>
    <Placemark>
      <name>Olema Marsh</name>
      <styleUrl>#IconStyle00</styleUrl>
      <Snippet></Snippet>
      <Point>
        <extrude>0</extrude>
        <altitudeMode>relativeToGround</altitudeMode>
        <coordinates> -122.816622,38.060898,0.000000</coordinates>
      </Point>
    </Placemark>
    <Placemark>
      <name>Walkway (Stinson Beach)</name>
      <styleUrl>#IconStyle00</styleUrl>
      <Snippet></Snippet>
      <Point>
        <extrude>0</extrude>
        <altitudeMode>relativeToGround</altitudeMode>
        <coordinates> -122.652684,37.904246,0.000000</coordinates>
      </Point>
    </Placemark>
    <Placemark>
      <name>Phillip Burton Memorial Beach</name>
      <styleUrl>#IconStyle00</styleUrl>
      <Snippet></Snippet>
      <Point>
        <extrude>0</extrude>
        <altitudeMode>relativeToGround</altitudeMode>
        <coordinates> -122.502768,37.708856,0.000000</coordinates>
      </Point>
    </Placemark>
    <Placemark>
      <name>Thornton State Beach</name>
      <styleUrl>#IconStyle00</styleUrl>
      <Snippet></Snippet>
      <Point>
        <extrude>0</extrude>
        <altitudeMode>relativeToGround</altitudeMode>
        <coordinates> -122.497068,37.694306,0.000000</coordinates>
      </Point>
    </Placemark>
    <Placemark>
      <name>Palisades Park (San Mateo County)</name>
      <styleUrl>#IconStyle00</styleUrl>
      <Snippet></Snippet>
      <Point>
        <extrude>0</extrude>
        <altitudeMode>relativeToGround</altitudeMode>
        <coordinates> -122.494657,37.687630,0.000000</coordinates>
      </Point>
    </Placemark>
    <Placemark>
      <name>Northridge City Park</name>
      <styleUrl>#IconStyle00</styleUrl>
      <Snippet></Snippet>
      <Point>
        <extrude>0</extrude>
        <altitudeMode>relativeToGround</altitudeMode>
        <coordinates> -122.493855,37.679038,0.000000</coordinates>
      </Point>
    </Placemark>
    <Placemark>
      <name>James V. Fitzgerald Marine Reserve</name>
      <styleUrl>#IconStyle00</styleUrl>
      <Snippet></Snippet>
      <Point>
        <extrude>0</extrude>
        <altitudeMode>relativeToGround</altitudeMode>
        <coordinates> -122.515706,37.523667,0.000000</coordinates>
      </Point>
    </Placemark>
    <Placemark>
      <name>Pillar Point Harbor</name>
      <styleUrl>#IconStyle00</styleUrl>
      <Snippet></Snippet>
      <Point>
        <extrude>0</extrude>
        <altitudeMode>relativeToGround</altitudeMode>
        <coordinates> -122.492340,37.502409,0.000000</coordinates>
      </Point>
    </Placemark>
    <Placemark>
      <name>El Granada Beach</name>
      <styleUrl>#IconStyle00</styleUrl>
      <Snippet></Snippet>
      <Point>
        <extrude>0</extrude>
        <altitudeMode>relativeToGround</altitudeMode>
        <coordinates> -122.469481,37.499943,0.000000</coordinates>
      </Point>
    </Placemark>
    <Placemark>
      <name>Venice Beach (San Mateo County)</name>
      <styleUrl>#IconStyle00</styleUrl>
      <Snippet></Snippet>
      <Point>
        <extrude>0</extrude>
        <altitudeMode>relativeToGround</altitudeMode>
        <coordinates> -122.449458,37.479056,0.000000</coordinates>
      </Point>
    </Placemark>
    <Placemark>
      <name>Dunes Beach (San Mateo County)</name>
      <styleUrl>#IconStyle00</styleUrl>
      <Snippet></Snippet>
      <Point>
        <extrude>0</extrude>
        <altitudeMode>relativeToGround</altitudeMode>
        <coordinates> -122.452877,37.484801,0.000000</coordinates>
      </Point>
    </Placemark>
    <Placemark>
      <name>Cowell Ranch Beach</name>
      <styleUrl>#IconStyle00</styleUrl>
      <Snippet></Snippet>
      <Point>
        <extrude>0</extrude>
        <altitudeMode>relativeToGround</altitudeMode>
        <coordinates> -122.433204,37.419929,0.000000</coordinates>
      </Point>
    </Placemark>
    <Placemark>
      <name>San Gregorio State Beach</name>
      <styleUrl>#IconStyle00</styleUrl>
      <Snippet></Snippet>
      <Point>
        <extrude>0</extrude>
        <altitudeMode>relativeToGround</altitudeMode>
        <coordinates> -122.399848,37.324539,0.000000</coordinates>
      </Point>
    </Placemark>
    <Placemark>
      <name>San Gregorio Private Beach</name>
      <styleUrl>#IconStyle00</styleUrl>
      <Snippet></Snippet>
      <Point>
        <extrude>0</extrude>
        <altitudeMode>relativeToGround</altitudeMode>
        <coordinates> -122.400761,37.337062,0.000000</coordinates>
      </Point>
    </Placemark>
    <Placemark>
      <name>Pomponio State Beach</name>
      <styleUrl>#IconStyle00</styleUrl>
      <Snippet></Snippet>
      <Point>
        <extrude>0</extrude>
        <altitudeMode>relativeToGround</altitudeMode>
        <coordinates> -122.405754,37.291545,0.000000</coordinates>
      </Point>
    </Placemark>
    <Placemark>
      <name>Pescadero State Beach (San Mateo County)</name>
      <styleUrl>#IconStyle00</styleUrl>
      <Snippet></Snippet>
      <Point>
        <extrude>0</extrude>
        <altitudeMode>relativeToGround</altitudeMode>
        <coordinates> -122.413472,37.261294,0.000000</coordinates>
      </Point>
    </Placemark>
    <Placemark>
      <name>Pescadero Marsh Natural Preserve</name>
      <styleUrl>#IconStyle00</styleUrl>
      <Snippet></Snippet>
      <Point>
        <extrude>0</extrude>
        <altitudeMode>relativeToGround</altitudeMode>
        <coordinates> -122.401182,37.255152,0.000000</coordinates>
      </Point>
    </Placemark>
    <Placemark>
      <name>Pebble Beach (San Mateo County)</name>
      <styleUrl>#IconStyle00</styleUrl>
      <Snippet></Snippet>
      <Point>
        <extrude>0</extrude>
        <altitudeMode>relativeToGround</altitudeMode>
        <coordinates> -122.415202,37.235042,0.000000</coordinates>
      </Point>
    </Placemark>
    <Placemark>
      <name>Bean Hollow State Beach</name>
      <styleUrl>#IconStyle00</styleUrl>
      <Snippet></Snippet>
      <Point>
        <extrude>0</extrude>
        <altitudeMode>relativeToGround</altitudeMode>
        <coordinates> -122.408953,37.224072,0.000000</coordinates>
      </Point>
    </Placemark>
    <Placemark>
      <name>Pigeon Point Lighthouse Hostel</name>
      <styleUrl>#IconStyle00</styleUrl>
      <Snippet></Snippet>
      <Point>
        <extrude>0</extrude>
        <altitudeMode>relativeToGround</altitudeMode>
        <coordinates> -122.393900,37.183031,0.000000</coordinates>
      </Point>
    </Placemark>
    <Placemark>
      <name>Overlooks (Pigeon Pt. Rd., San Mateo County)</name>
      <styleUrl>#IconStyle00</styleUrl>
      <Snippet></Snippet>
      <Point>
        <extrude>0</extrude>
        <altitudeMode>relativeToGround</altitudeMode>
        <coordinates> -122.373908,37.178466,0.000000</coordinates>
      </Point>
    </Placemark>
    <Placemark>
      <name>Bird Walk Trail</name>
      <styleUrl>#IconStyle00</styleUrl>
      <Snippet></Snippet>
      <Point>
        <extrude>0</extrude>
        <altitudeMode>relativeToGround</altitudeMode>
        <coordinates> -123.042147,38.327574,0.000000</coordinates>
      </Point>
    </Placemark>
    <Placemark>
      <name>Presidio of San Francisco</name>
      <styleUrl>#IconStyle00</styleUrl>
      <Snippet></Snippet>
      <Point>
        <extrude>0</extrude>
        <altitudeMode>relativeToGround</altitudeMode>
        <coordinates> -122.477498,37.805135,0.000000</coordinates>
      </Point>
    </Placemark>
    <Placemark>
      <name>Pedro Point Headlands</name>
      <styleUrl>#IconStyle00</styleUrl>
      <Snippet></Snippet>
      <Point>
        <extrude>0</extrude>
        <altitudeMode>relativeToGround</altitudeMode>
        <coordinates> -122.519246,37.594126,0.000000</coordinates>
      </Point>
    </Placemark>
    <Placemark>
      <name>Mori Point</name>
      <styleUrl>#IconStyle00</styleUrl>
      <Snippet></Snippet>
      <Point>
        <extrude>0</extrude>
        <altitudeMode>relativeToGround</altitudeMode>
        <coordinates> -122.497841,37.619999,0.000000</coordinates>
      </Point>
    </Placemark>
  </Folder>
  <Style id="IconStyle00">
    <IconStyle>
      <Icon><href>/site-media/images/access_marker.png</href></Icon>
      <scale>1.000000</scale>
    </IconStyle>
    <LabelStyle>
      <color>00000000</color>
      <scale>0.000000</scale>
    </LabelStyle>
  </Style>
</Document>
</kml>